{"001": {"id": "001", "code": "UC", "tags": "Art Centre", "name": "University College", "short_name": "UC", "street": "15  King's College Circle", "city": "Toronto", "province": "ON", "country": "Canada", "postal": "M5S 3H7", "coordinates": {"latitude": 43.6632, "longitude": -79.39582}, "last_updated": "2020-06-14 09:38:05.0"}, "002": {"id": "002", "code": "HH", "tags": "Theatre", "name": "Hart House", "short_name": "Hart House", "street": "7  Hart House Circle", "city": "Toronto", "province": "ON", "country": "Canada", "postal": "M5S 3H3", "coordinates": {"latitude": 43.6637, "longitude": -79.39452}, "last_updated": "2020-06-14 09:38:05.0"}, "003": {"id": "003", "code": "SM", "tags": "Sigmund Samuel", "name": "Gerstein Science Information Centre in the Sigmund Samuel Library Bldg", "short_name": "Sig Sam/Gerstein", "street": "7 and 9 King's College Circle", "city": "Toronto", "province": "ON", "country": "Canada", "postal": "M5S 3K1", "coordinates": {"latitude": 43.6622, "longitude": -79.39385}, "last_updated": "2020-06-14 09:38:05.0"}, "004": {"id": "004", "code": "MR", "tags": null, "name": "McMurrich Building", "short_name": "McMurrich", "street": "12  Queen's Park Crescent W", "city": "Toronto", "province": "ON", "country": "Canada", "postal": "M5S 1S8", "coordinates": {"latitude": 43.66111, "longitude": -79.39287}, "last_updated": "2020-06-14 09:38:05.0"}, "005": {"id": "005", "code": "MS", "tags": null, "name": "Medical Sciences Building", "short_name": "MSB", "street": "1  King's College Circle", "city": "Toronto", "province": "ON", "country": "Canada", "postal": "M5S 1A8", "coordinates": {"latitude": 43.66074, "longitude": -79.39373}, "last_updated": "2020-06-14 09:38:05.0"}, "006": {"id": "006", "code": "RL", "tags": null, "name": "John P. Robarts Library Building", "short_name": "Robarts", "street": "130  St. George Street", "city": "Toronto", "province": "ON", "country": "Canada", "postal": "M5S 1A5", "coordinates": {"latitude": 43.66445, "longitude": -79.39945}, "last_updated": "2020-06-14 09:38:05.0"}, "006A": {"id": "006A", "code": "BL", "tags": null, "name": "Claude T. Bissell Building", "short_name": "Bissell Bldg", "street": "140  St. George Street", "city": "Toronto", "province": "ON", "country": "Canada", "postal": "M5S 3G6", "coordinates": {"latitude": 43.66503, "longitude": -79.3993}, "last_updated": "2020-06-14 09:38:05.0"}, "006B": {"id": "006B", "code": "RB", "tags": null, "name": "Thomas Fisher Rare Book Library Building", "short_name": "Rare Book", "street": "120  St. George Street", "city": "Toronto", "province": "ON", "country": "Canada", "postal": "M5S 1A5", "coordinates": {"latitude": 43.66405, "longitude": -79.39894}, "last_updated": "2020-06-14 09:38:05.0"}, "007": {"id": "007", "code": "MB", "tags": null, "name": "Lassonde Mining Building", "short_name": "Mining", "street": "170  College Street", "city": "Toronto", "province": "ON", "country": "Canada", "postal": "M5S 3E3", "coordinates": {"latitude": 43.6595, "longitude": -79.39339}, "last_updated": "2020-06-14 09:38:05.0"}, "008": {"id": "008", "code": "WB", "tags": null, "name": "Wallberg Building", "short_name": "Wallberg", "street": "184-200   College Street", "city": "Toronto", "province": "ON", "country": "Canada", "postal": "M5S 3E5", "coordinates": {"latitude": 43.65912, "longitude": -79.39519}, "last_updated": "2020-06-14 09:38:05.0"}, "008A": {"id": "008A", "code": "PT", "tags": null, "name": "D.L. Pratt Building", "short_name": "D.L. Pratt", "street": "6  King's College Road", "city": "Toronto", "province": "ON", "country": "Canada", "postal": "M5S 3H5", "coordinates": {"latitude": 43.65963, "longitude": -79.39469}, "last_updated": "2020-06-14 09:38:05.0"}, "009": {"id": "009", "code": "SF", "tags": null, "name": "Sandford Fleming Building", "short_name": "Sandford Flm", "street": "10  King's College Road", "city": "Toronto", "province": "ON", "country": "Canada", "postal": "M5S 3G4", "coordinates": {"latitude": 43.66012, "longitude": -79.3951}, "last_updated": "2020-06-14 09:38:05.0"}, "010": {"id": "010", "code": "SI", "tags": null, "name": "Simcoe Hall", "short_name": "Simcoe Hall", "street": "27  King's College Circle", "city": "Toronto", "province": "ON", "country": "Canada", "postal": "M5S 1A1", "coordinates": {"latitude": 43.66076, "longitude": -79.39594}, "last_updated": "2020-06-14 09:38:05.0"}, "010A": {"id": "010A", "code": "CH", "tags": null, "name": "Convocation Hall", "short_name": "Con Hall", "street": "31  King's College Circle", "city": "Toronto", "province": "ON", "country": "Canada", "postal": "M5S 1A1", "coordinates": {"latitude": 43.66077, "longitude": -79.39539}, "last_updated": "2020-06-14 09:38:05.0"}, "011": {"id": "011", "code": "NL", "tags": null, "name": "C. David Naylor Building", "short_name": "Naylor Bldg", "street": "6  Queen's Park Crescent West", "city": "Toronto", "province": "ON", "country": "Canada", "postal": "M5S 3H2", "coordinates": {"latitude": 43.66043, "longitude": -79.39176}, "last_updated": "2020-06-14 09:38:05.0"}, "012A": {"id": "012A", "code": "MU", "tags": null, "name": "Munk School of Global Affairs & Public Policy at Trinity", "short_name": "Munk-Trinity", "street": "1  Devonshire Place", "city": "Toronto", "province": "ON", "country": "Canada", "postal": "M5S 3K7", "coordinates": {"latitude": 43.6653, "longitude": -79.39679}, "last_updated": "2020-06-14 09:38:05.0"}, "012B": {"id": "012B", "code": "MU", "tags": null, "name": "Munk School of Global Affairs & Public Policy at Trinity", "short_name": "Munk-Trinity", "street": "3  Devonshire Place", "city": "Toronto", "province": "ON", "country": "Canada", "postal": "M5S 3K7", "coordinates": {"latitude": null, "longitude": null}, "last_updated": "2020-06-14 09:38:05.0"}, "012C": {"id": "012C", "code": "MU", "tags": null, "name": "Munk School of Global Affairs & Public Policy - Graham Library", "short_name": "Munk East", "street": "5  Devonshire Place", "city": "Toronto", "province": "ON", "country": "Canada", "postal": "M5S 3K7", "coordinates": {"latitude": 43.66507, "longitude": -79.39635}, "last_updated": "2020-06-14 09:38:05.0"}, "013": {"id": "013", "code": "WT", "tags": null, "name": "Whitney Hall", "short_name": "Whitney Hall", "street": "85  St. George Street", "city": "Toronto", "province": "ON", "country": "Canada", "postal": "M5S 2E5", "coordinates": {"latitude": 43.66376, "longitude": -79.39794}, "last_updated": "2020-06-14 09:38:05.0"}, "014": {"id": "014", "code": "FE", "tags": null, "name": "Bloor Street West-371", "short_name": "Bloor W-371", "street": "371  Bloor Street West", "city": "Toronto", "province": "ON", "country": "Canada", "postal": "M5S 2R7", "coordinates": {"latitude": 43.66668, "longitude": -79.40223}, "last_updated": "2020-06-14 09:38:05.0"}, "016": {"id": "016", "code": "BI", "tags": null, "name": "Banting Institute", "short_name": "Banting", "street": "100  College Street", "city": "Toronto", "province": "ON", "country": "Canada", "postal": "M5G 1L5", "coordinates": {"latitude": 43.66049, "longitude": -79.38859}, "last_updated": "2020-06-14 09:38:05.0"}, "018": {"id": "018", "code": "ST", "tags": null, "name": "Central Steam Plant", "short_name": "Steam Plant", "street": "17  Russell Street", "city": "Toronto", "province": "ON", "country": "Canada", "postal": "M5S 2S2", "coordinates": {"latitude": 43.66003, "longitude": -79.39774}, "last_updated": "2020-06-14 09:38:05.0"}, "019": {"id": "019", "code": "DR", "tags": null, "name": "J. Robert S. Prichard Alumni House", "short_name": "Prichard Hse", "street": "21  King's College Circle", "city": "Toronto", "province": "ON", "country": "Canada", "postal": "M5S 3J3", "coordinates": {"latitude": 43.66209, "longitude": -79.39666}, "last_updated": "2020-06-14 09:38:05.0"}, "020": {"id": "020", "code": "RS", "tags": null, "name": "Rosebrugh Building", "short_name": "Rosebrugh", "street": "164  College Street", "city": "Toronto", "province": "ON", "country": "Canada", "postal": "M5S 3G9", "coordinates": {"latitude": 43.66005, "longitude": -79.39323}, "last_updated": "2020-06-14 09:38:05.0"}, "021": {"id": "021", "code": "EA", "tags": null, "name": "Engineering Annex", "short_name": "Eng Annex", "street": "11  King's College Road", "city": "Toronto", "province": "ON", "country": "Canada", "postal": "M5S 1A4", "coordinates": {"latitude": 43.6596, "longitude": -79.39541}, "last_updated": "2020-06-14 09:38:05.0"}, "022": {"id": "022", "code": "MC", "tags": null, "name": "Mechanical Engineering Building", "short_name": "Mech Eng", "street": "5  King's College Road", "city": "Toronto", "province": "ON", "country": "Canada", "postal": "M5S 3G8", "coordinates": {"latitude": 43.65993, "longitude": -79.39403}, "last_updated": "2020-06-14 09:38:05.0"}, "023": {"id": "023", "code": "UP", "tags": null, "name": "University College Union", "short_name": "UC Union", "street": "79  St. George Street", "city": "Toronto", "province": "ON", "country": "Canada", "postal": "M5S 2E5", "coordinates": {"latitude": 43.66338, "longitude": -79.39747}, "last_updated": "2020-06-14 09:38:05.0"}, "024": {"id": "024", "code": "HA", "tags": null, "name": "Haultain Building", "short_name": "Haultain", "street": "170  College Street (rear of)", "city": "Toronto", "province": "ON", "country": "Canada", "postal": "M5S 3E3", "coordinates": {"latitude": 43.65994, "longitude": -79.39364}, "last_updated": "2020-06-14 09:38:05.0"}, "025": {"id": "025", "code": "FG", "tags": null, "name": "FitzGerald Building (Under Renovation)", "short_name": "FitzGerald", "street": "150  College Street", "city": "Toronto", "province": "ON", "country": "Canada", "postal": "M5S 1A8", "coordinates": {"latitude": 43.66006, "longitude": -79.39245}, "last_updated": "2020-06-14 09:38:05.0"}, "026": {"id": "026", "code": "CU", "tags": null, "name": "Cumberland House", "short_name": "Cumberland", "street": "33  St. George Street", "city": "Toronto", "province": "ON", "country": "Canada", "postal": "M5S 2E3", "coordinates": {"latitude": 43.65946, "longitude": -79.3959}, "last_updated": "2020-06-14 09:38:05.0"}, "027": {"id": "027", "code": "PG", "tags": null, "name": "St. George Street-45", "short_name": "St.George-45", "street": "45  St. George Street", "city": "Toronto", "province": "ON", "country": "Canada", "postal": "M5S 2E5", "coordinates": {"latitude": 43.66036, "longitude": -79.39655}, "last_updated": "2020-06-14 09:38:05.0"}, "028": {"id": "028", "code": "SU", "tags": null, "name": "Student Commons (Under Renovation)", "short_name": "Student Comm", "street": "230  College Street", "city": "Toronto", "province": "ON", "country": "Canada", "postal": "M5T 1R2", "coordinates": {"latitude": 43.65868, "longitude": -79.39791}, "last_updated": "2020-06-14 09:38:05.0"}, "029": {"id": "029", "code": "SD", "tags": null, "name": "Sir Daniel Wilson Residence", "short_name": "Sir Daniel", "street": "73  St. George Street", "city": "Toronto", "province": "ON", "country": "Canada", "postal": "M5S 2E5", "coordinates": {"latitude": 43.66264, "longitude": -79.39753}, "last_updated": "2020-06-14 09:38:05.0"}, "030A": {"id": "030A", "code": "VA", "tags": null, "name": "Varsity Centre", "short_name": "Varsity Centre", "street": "299  Bloor Street West", "city": "Toronto", "province": "ON", "country": "Canada", "postal": null, "coordinates": {"latitude": 43.66724, "longitude": -79.3963}, "last_updated": "2020-06-14 09:38:05.0"}, "032": {"id": "032", "code": "WE", "tags": null, "name": "Wetmore Hall-New College", "short_name": "Wetmore Hall", "street": "300  Huron Street", "city": "Toronto", "province": "ON", "country": "Canada", "postal": "M5S 2Z3", "coordinates": {"latitude": 43.66224, "longitude": -79.40059}, "last_updated": "2020-06-14 09:38:05.0"}, "032A": {"id": "032A", "code": "WI", "tags": null, "name": "Wilson Hall-New College", "short_name": "Wilson Hall", "street": "40  Willcocks Street", "city": "Toronto", "province": "ON", "country": "Canada", "postal": "M5S 1C6", "coordinates": {"latitude": 43.66176, "longitude": -79.40035}, "last_updated": "2020-06-14 09:38:05.0"}, "033": {"id": "033", "code": "SS", "tags": null, "name": "Sidney Smith Hall", "short_name": "Sidney Smith", "street": "100  St. George Street", "city": "Toronto", "province": "ON", "country": "Canada", "postal": "M5S 3G3", "coordinates": {"latitude": 43.66238, "longitude": -79.39866}, "last_updated": "2020-06-14 09:38:05.0"}, "034": {"id": "034", "code": "MA", "tags": null, "name": "Massey College", "short_name": "Massey Coll", "street": "4  Devonshire Place", "city": "Toronto", "province": "ON", "country": "Canada", "postal": "M5S 2E1", "coordinates": {"latitude": 43.66484, "longitude": -79.39728}, "last_updated": "2020-06-14 09:38:05.0"}, "036": {"id": "036", "code": "AB", "tags": null, "name": "Astronomy & Astrophysics Building", "short_name": "Astronomy", "street": "50  St. George Street", "city": "Toronto", "province": "ON", "country": "Canada", "postal": "M5S 3H4", "coordinates": {"latitude": 43.66066, "longitude": -79.39734}, "last_updated": "2020-06-14 09:38:05.0"}, "038": {"id": "038", "code": "WW", "tags": null, "name": "Woodsworth College", "short_name": "Woodsworth", "street": "119  St. George Street", "city": "Toronto", "province": "ON", "country": "Canada", "postal": "M5S 1A9", "coordinates": {"latitude": 43.6664, "longitude": -79.39879}, "last_updated": "2020-06-14 09:38:05.0"}, "040": {"id": "040", "code": "LW", "tags": null, "name": "Faculty of Law", "short_name": "Law", "street": "78  Queen's Park", "city": "Toronto", "province": "ON", "country": "Canada", "postal": "M5S 2C5", "coordinates": {"latitude": 43.66593, "longitude": -79.39384}, "last_updated": "2020-06-14 09:38:05.0"}, "041": {"id": "041", "code": "VP", "tags": null, "name": "Varsity Pavilion", "short_name": "Vars Pavilion", "street": "299 Bloor Street West", "city": "Toronto", "province": "ON", "country": "Canada", "postal": null, "coordinates": {"latitude": 43.66643, "longitude": -79.39643}, "last_updated": "2020-06-14 09:38:05.0"}, "042": {"id": "042", "code": "GO", "tags": null, "name": "Goldring Centre for High Performance Sport", "short_name": "GC High Perf", "street": "100 Devonshire Place", "city": "Toronto", "province": "ON", "country": "Canada", "postal": null, "coordinates": {"latitude": 43.66723, "longitude": -79.3984}, "last_updated": "2020-06-14 09:38:05.0"}, "043": {"id": "043", "code": "GS", "tags": null, "name": "School of Graduate Studies", "short_name": "SGS", "street": "65  St. George Street", "city": "Toronto", "province": "ON", "country": "Canada", "postal": "M5S 2E5", "coordinates": {"latitude": 43.662, "longitude": -79.39711}, "last_updated": "2020-06-14 09:38:05.0"}, "047": {"id": "047", "code": "CG", "tags": null, "name": "Canadiana Gallery", "short_name": "Canadiana", "street": "14  Queen's Park Crescent West", "city": "Toronto", "province": "ON", "country": "Canada", "postal": "M5S 3K9", "coordinates": {"latitude": 43.66192, "longitude": -79.39292}, "last_updated": "2020-06-14 09:38:05.0"}, "050": {"id": "050", "code": "FH", "tags": null, "name": "Falconer Hall", "short_name": "Falconer Hal", "street": "84  Queen's Park", "city": "Toronto", "province": "ON", "country": "Canada", "postal": "M5S 2C5", "coordinates": {"latitude": 43.66669, "longitude": -79.39396}, "last_updated": "2020-06-14 09:38:05.0"}, "051": {"id": "051", "code": "EJ", "tags": null, "name": "Edward Johnson Building", "short_name": "Edward Johns", "street": "80  Queen's Park", "city": "Toronto", "province": "ON", "country": "Canada", "postal": "M5S 2C5", "coordinates": {"latitude": 43.66655, "longitude": -79.39458}, "last_updated": "2020-06-14 09:38:05.0"}, "052": {"id": "052", "code": "CB", "tags": null, "name": "Best Institute (Demolished 2020/01)", "short_name": "Best Inst", "street": "112  College St", "city": "Toronto", "province": "ON", "country": "Canada", "postal": "M5G 1L6", "coordinates": {"latitude": 43.66037, "longitude": -79.38929}, "last_updated": "2020-06-14 09:38:05.0"}, "053": {"id": "053", "code": "WR", "tags": null, "name": "Dr. Eric Jackman Institute of Child Study", "short_name": "Child Study", "street": "45  Walmer Road", "city": "Toronto", "province": "ON", "country": "Canada", "postal": "M5R 2X2", "coordinates": {"latitude": 43.66967, "longitude": -79.40607}, "last_updated": "2020-06-14 09:38:05.0"}, "054": {"id": "054", "code": "DA", "tags": null, "name": "Daniels Building", "short_name": "Daniels Bldg", "street": "1  Spadina Crescent", "city": "Toronto", "province": "ON", "country": "Canada", "postal": "M5S 2J5", "coordinates": {"latitude": 43.65969, "longitude": -79.40076}, "last_updated": "2020-06-14 09:38:05.0"}, "056": {"id": "056", "code": "GU", "tags": null, "name": "Graduate Students' Union", "short_name": "G.S.U.", "street": "16  Bancroft Avenue", "city": "Toronto", "province": "ON", "country": "Canada", "postal": "M5S 1C1", "coordinates": {"latitude": 43.66083, "longitude": -79.40025}, "last_updated": "2020-06-14 09:38:05.0"}, "057": {"id": "057", "code": "BF", "tags": null, "name": "Bancroft Building", "short_name": "Bancroft Bldg", "street": "4  Bancroft Avenue", "city": "Toronto", "province": "ON", "country": "Canada", "postal": "M5S 1C1", "coordinates": {"latitude": 43.66093, "longitude": -79.39972}, "last_updated": "2020-06-14 09:38:05.0"}, "061": {"id": "061", "code": "SB", "tags": null, "name": "Borden Building South", "short_name": "Borden South", "street": "487  Spadina Crescent", "city": "Toronto", "province": "ON", "country": "Canada", "postal": "M5S 2T4", "coordinates": {"latitude": 43.66007, "longitude": -79.39967}, "last_updated": "2020-06-14 09:38:05.0"}, "061A": {"id": "061A", "code": "NB", "tags": null, "name": "Borden Building North", "short_name": "Borden North", "street": "563  Spadina Crescent", "city": "Toronto", "province": "ON", "country": "Canada", "postal": "M5S 2J7", "coordinates": {"latitude": 43.66041, "longitude": -79.4}, "last_updated": "2020-06-14 09:38:05.0"}, "062": {"id": "062", "code": "ES", "tags": null, "name": "Earth Sciences Centre", "short_name": "Earth Sci", "street": "33  Willcocks Street", "city": "Toronto", "province": "ON", "country": "Canada", "postal": "M5S 3B3", "coordinates": {"latitude": 43.6611, "longitude": -79.3993}, "last_updated": "2020-06-14 09:38:05.0"}, "064": {"id": "064", "code": "GD", "tags": null, "name": "Graduate House", "short_name": "Grad House", "street": "60  Harbord Street", "city": "Toronto", "province": "ON", "country": "Canada", "postal": "M5S 3L1", "coordinates": {"latitude": 43.66338, "longitude": -79.40164}, "last_updated": "2020-06-14 09:38:05.0"}, "065": {"id": "065", "code": "DN", "tags": null, "name": "Dentistry Building", "short_name": "Dentistry", "street": "124  Edward Street", "city": "Toronto", "province": "ON", "country": "Canada", "postal": "M5G 1G6", "coordinates": {"latitude": 43.65627, "longitude": -79.38714}, "last_updated": "2020-06-14 09:38:05.0"}, "066": {"id": "066", "code": "XG", "tags": null, "name": "Spadina Avenue-665", "short_name": "Spadina-665", "street": "665 Spadina Avenue", "city": "Toronto", "province": "ON", "country": "Canada", "postal": null, "coordinates": {"latitude": 43.66446, "longitude": -79.40223}, "last_updated": "2020-06-14 09:38:05.0"}, "067": {"id": "067", "code": "HU", "tags": null, "name": "Huron Street-215", "short_name": "Huron-215", "street": "215  Huron Street", "city": "Toronto", "province": "ON", "country": "Canada", "postal": "M5S 1A2", "coordinates": {"latitude": 43.6593, "longitude": -79.39824}, "last_updated": "2020-06-14 09:38:05.0"}, "068": {"id": "068", "code": "BN", "tags": null, "name": "Clara Benson Building", "short_name": "Clara Benson", "street": "320  Huron Street", "city": "Toronto", "province": "ON", "country": "Canada", "postal": "M5S 3J7", "coordinates": {"latitude": 43.66294, "longitude": -79.4002}, "last_updated": "2020-06-14 09:38:05.0"}, "068A": {"id": "068A", "code": "WS", "tags": null, "name": "Warren Stevens Building", "short_name": "Warren Stevn", "street": "55  Harbord Street", "city": "Toronto", "province": "ON", "country": "Canada", "postal": "M5S 2W6", "coordinates": {"latitude": 43.66279, "longitude": -79.40102}, "last_updated": "2020-06-14 09:38:05.0"}, "070": {"id": "070", "code": "GB", "tags": null, "name": "Galbraith Building", "short_name": "Galbraith", "street": "35  St. George Street", "city": "Toronto", "province": "ON", "country": "Canada", "postal": "M5S 1A4", "coordinates": {"latitude": 43.65988, "longitude": -79.39619}, "last_updated": "2020-06-14 09:38:05.0"}, "072": {"id": "072", "code": "RW", "tags": null, "name": "Ramsay Wright Laboratories", "short_name": "RamsayWright", "street": "25  Harbord Street", "city": "Toronto", "province": "ON", "country": "Canada", "postal": "M5S 3G5", "coordinates": {"latitude": 43.66312, "longitude": -79.39898}, "last_updated": "2020-06-14 09:38:05.0"}, "073": {"id": "073", "code": "LM", "tags": null, "name": "Lash Miller Chemical Laboratories", "short_name": "Lash Miller", "street": "80  St. George Street", "city": "Toronto", "province": "ON", "country": "Canada", "postal": "M5S 3H6", "coordinates": {"latitude": 43.6614, "longitude": -79.39781}, "last_updated": "2020-06-14 09:38:05.0"}, "075": {"id": "075", "code": "FC", "tags": null, "name": "Faculty Club", "short_name": "Faculty Club", "street": "41  Willcocks Street", "city": "Toronto", "province": "ON", "country": "Canada", "postal": "M5S 1C7", "coordinates": {"latitude": 43.66115, "longitude": -79.40049}, "last_updated": "2020-06-14 09:38:05.0"}, "077": {"id": "077", "code": "SC", "tags": null, "name": "Sussex Court", "short_name": "Sussex Court", "street": "21  Sussex Avenue", "city": "Toronto", "province": "ON", "country": "Canada", "postal": "M5S 1J6", "coordinates": {"latitude": 43.66484, "longitude": -79.40089}, "last_updated": "2020-06-14 09:38:05.0"}, "078": {"id": "078", "code": "MP", "tags": null, "name": "McLennan Physical Laboratories", "short_name": "McLennan Lab", "street": "255  Huron Street", "city": "Toronto", "province": "ON", "country": "Canada", "postal": "M5S 1A7", "coordinates": {"latitude": 43.66071, "longitude": -79.39827}, "last_updated": "2020-06-14 09:38:05.0"}, "079": {"id": "079", "code": "AP", "tags": null, "name": "Anthropology Building", "short_name": "Anthropology", "street": "19  Russell Street", "city": "Toronto", "province": "ON", "country": "Canada", "postal": "M5S 2S2", "coordinates": {"latitude": 43.65987, "longitude": -79.39845}, "last_updated": "2020-06-14 09:38:05.0"}, "080": {"id": "080", "code": "BA", "tags": null, "name": "Bahen Centre for Information Technology", "short_name": "Bahen Centre", "street": "40  St. George Street", "city": "Toronto", "province": "ON", "country": "Canada", "postal": "M5S 2E4", "coordinates": {"latitude": 43.65967, "longitude": -79.39737}, "last_updated": "2020-06-14 09:38:05.0"}, "082": {"id": "082", "code": "GA", "tags": null, "name": "Gage Building", "short_name": "Gage Bldg", "street": "223  College Street", "city": "Toronto", "province": "ON", "country": "Canada", "postal": "M5T 1R4", "coordinates": {"latitude": 43.6582, "longitude": -79.39709}, "last_updated": "2020-06-14 09:38:05.0"}, "083": {"id": "083", "code": "RM", "tags": null, "name": "McCaul Street-254/256", "short_name": "McCaul-254/6", "street": "254-256   McCaul Street", "city": "Toronto", "province": "ON", "country": "Canada", "postal": "M5T 1W5", "coordinates": {"latitude": 43.65857, "longitude": -79.3936}, "last_updated": "2020-06-14 09:38:05.0"}, "087": {"id": "087", "code": "MY", "tags": null, "name": "Myhal Centre for Engineering Innovation and Entrepreneurship", "short_name": "Myhal Centre", "street": "55 St. George Street", "city": "Toronto", "province": "ON", "country": "Canada", "postal": "M5S 0C9", "coordinates": {"latitude": 43.66079, "longitude": -79.39657}, "last_updated": "2020-06-14 09:38:05.0"}, "088": {"id": "088", "code": "WA", "tags": null, "name": "St. George Street-123", "short_name": "StGeorge-123", "street": "123  St. George Street", "city": "Toronto", "province": "ON", "country": "Canada", "postal": "M5S 2E8", "coordinates": {"latitude": 43.6669, "longitude": -79.39921}, "last_updated": "2020-06-14 09:38:05.0"}, "089": {"id": "089", "code": "MK", "tags": null, "name": "Munk School of Global Affairs & Public Policy at the Observatory", "short_name": "Munk-Observ", "street": "315  Bloor Street West", "city": "Toronto", "province": "ON", "country": "Canada", "postal": "M5S 1A3", "coordinates": {"latitude": 43.66747, "longitude": -79.39852}, "last_updated": "2020-06-14 09:38:05.0"}, "090": {"id": "090", "code": "ZC", "tags": null, "name": "College Street-88", "short_name": "College-88", "street": "88  College Street", "city": "Toronto", "province": "ON", "country": "Canada", "postal": "M5G 1L4", "coordinates": {"latitude": 43.66077, "longitude": -79.38784}, "last_updated": "2020-06-14 09:38:05.0"}, "091": {"id": "091", "code": "GM", "tags": null, "name": "Luella Massey Studio Theatre", "short_name": "Studio Thtre", "street": "4  Glen Morris Street", "city": "Toronto", "province": "ON", "country": "Canada", "postal": "M5S 1J1", "coordinates": {"latitude": 43.66435, "longitude": -79.40107}, "last_updated": "2020-06-14 09:38:05.0"}, "092": {"id": "092", "code": "CX", "tags": null, "name": "Communications House", "short_name": "Comm House", "street": "167 College Street", "city": "Toronto", "province": "ON", "country": "Canada", "postal": null, "coordinates": {"latitude": 43.65893, "longitude": -79.39355}, "last_updated": "2020-06-14 09:38:05.0"}, "093": {"id": "093", "code": "EL", "tags": null, "name": "Electrometallurgy Lab", "short_name": "Electrometal", "street": "11  King's College Road (rear)", "city": "Toronto", "province": "ON", "country": "Canada", "postal": "M5S 3J2", "coordinates": {"latitude": 43.65947, "longitude": -79.3953}, "last_updated": "2020-06-14 09:38:05.0"}, "094": {"id": "094", "code": "BK", "tags": null, "name": "Back Campus Fields", "short_name": "Back Campus", "street": "20 Tower Road", "city": "Toronto", "province": "ON", "country": "Canada", "postal": null, "coordinates": {"latitude": 43.66386, "longitude": -79.39636}, "last_updated": "2020-06-14 09:38:05.0"}, "097": {"id": "097", "code": "ME", "tags": null, "name": "Queen's Park Crescent East-39", "short_name": "QueenPk-39", "street": "39  Queen's Park Crescent East", "city": "Toronto", "province": "ON", "country": "Canada", "postal": "M5S 2C3", "coordinates": {"latitude": 43.66424, "longitude": -79.39041}, "last_updated": "2020-06-14 09:38:05.0"}, "097A": {"id": "097A", "code": "ML", "tags": null, "name": "Queen's Park Crsc. E.-39A", "short_name": "Queens Pk39A", "street": "39A   Queen's Park Crsc. E", "city": "Toronto", "province": "ON", "country": "Canada", "postal": "M5S 2C3", "coordinates": {"latitude": 43.66431, "longitude": -79.38981}, "last_updated": "2020-06-14 09:38:05.0"}, "098B": {"id": "098B", "code": "JP", "tags": null, "name": "Wellesley Street West-90", "short_name": "Wellesley-90", "street": "90 Wellesley Street West", "city": "Toronto", "province": "ON", "country": "Canada", "postal": "M5S 1C5", "coordinates": {"latitude": 43.66404, "longitude": -79.38973}, "last_updated": "2020-06-14 09:38:05.0"}, "098C": {"id": "098C", "code": "JP", "tags": null, "name": "Wellesley Street West-90", "short_name": "Wellesley-90", "street": "90 Wellesley Street West", "city": "Toronto", "province": "ON", "country": "Canada", "postal": "M5S 1C5", "coordinates": {"latitude": null, "longitude": null}, "last_updated": "2020-06-14 09:38:05.0"}, "101": {"id": "101", "code": "MO", "tags": null, "name": "Morrison Hall", "short_name": "MorrisonHall", "street": "75  St. George Street", "city": "Toronto", "province": "ON", "country": "Canada", "postal": "M5S 2E5", "coordinates": {"latitude": 43.6631, "longitude": -79.39761}, "last_updated": "2020-06-14 09:38:05.0"}, "102": {"id": "102", "code": "TR", "tags": null, "name": "Soldiers' Tower", "short_name": "Soldiers Twr", "street": "7  Hart House Circle", "city": "Toronto", "province": "ON", "country": "Canada", "postal": "M5S 3H3", "coordinates": {"latitude": 43.66351, "longitude": -79.39522}, "last_updated": "2020-06-14 09:38:05.0"}, "103": {"id": "103", "code": "CS", "tags": null, "name": "School of Continuing Studies", "short_name": "SCS", "street": "158  St. George Street", "city": "Toronto", "province": "ON", "country": "Canada", "postal": "M5S 2V8", "coordinates": {"latitude": 43.6667, "longitude": -79.39992}, "last_updated": "2020-06-14 09:38:05.0"}, "104": {"id": "104", "code": "GE", "tags": null, "name": "Max Gluskin House", "short_name": "Gluskin House", "street": "150  St. George Street", "city": "Toronto", "province": "ON", "country": "Canada", "postal": "M5S 3G7", "coordinates": {"latitude": 43.66615, "longitude": -79.3997}, "last_updated": "2020-06-14 09:38:05.0"}, "105": {"id": "105", "code": "FI", "tags": null, "name": "Fields Inst for Research in Math Science", "short_name": "Fields Inst", "street": "222  College Street", "city": "Toronto", "province": "ON", "country": "Canada", "postal": "M5T 3J1", "coordinates": {"latitude": 43.65879, "longitude": -79.39745}, "last_updated": "2020-06-14 09:38:05.0"}, "106": {"id": "106", "code": "CO", "tags": null, "name": "St. George Street-162", "short_name": "St.George-162", "street": "162 St. George Street", "city": "Toronto", "province": "ON", "country": "Canada", "postal": null, "coordinates": {"latitude": 43.66711, "longitude": -79.40004}, "last_updated": "2020-06-14 09:38:05.0"}, "107": {"id": "107", "code": null, "tags": null, "name": "Future Devonshire Building", "short_name": null, "street": null, "city": null, "province": null, "country": null, "postal": null, "coordinates": {"latitude": null, "longitude": null}, "last_updated": "2020-06-14 09:38:05.0"}, "110": {"id": "110", "code": "IR", "tags": null, "name": "St. George Street-121", "short_name": "StGeorge-121", "street": "121  St. George Street", "city": "Toronto", "province": "ON", "country": "Canada", "postal": "M5S 2E8", "coordinates": {"latitude": 43.66669, "longitude": -79.3991}, "last_updated": "2020-06-14 09:38:05.0"}, "111": {"id": "111", "code": "SK", "tags": null, "name": "Factor-Inwentash Faculty of Social Work", "short_name": "Social Work", "street": "246  Bloor Street West", "city": "Toronto", "province": "ON", "country": "Canada", "postal": "M5S 1V4", "coordinates": {"latitude": 43.66829, "longitude": -79.39773}, "last_updated": "2020-06-14 09:38:05.0"}, "120": {"id": "120", "code": "SO", "tags": null, "name": "Louis B. Stewart Observatory (UTSU)", "short_name": "Stewart Obsv", "street": "12  Hart House Circle", "city": "Toronto", "province": "ON", "country": "Canada", "postal": "M5S 3J9", "coordinates": {"latitude": 43.66315, "longitude": -79.39468}, "last_updated": "2020-06-14 09:38:05.0"}, "122": {"id": "122", "code": "NW", "tags": null, "name": "North West Chiller Plant", "short_name": "Chiller Plant", "street": "50 Sussex Avenue", "city": "Toronto", "province": "ON", "country": "Canada", "postal": "M5S 1J7", "coordinates": {"latitude": null, "longitude": null}, "last_updated": "2020-06-14 09:38:05.0"}, "123": {"id": "123", "code": "OI", "tags": "OISE", "name": "Ontario Institute for Studies in Education", "short_name": "OISE", "street": "252  Bloor Street West", "city": "Toronto", "province": "ON", "country": "Canada", "postal": "M5S 1V6", "coordinates": {"latitude": 43.66828, "longitude": -79.39846}, "last_updated": "2020-06-14 09:38:05.0"}, "125": {"id": "125", "code": "IA", "tags": null, "name": "Spadina Avenue-703", "short_name": "Spadina-703", "street": "703  Spadina Avenue", "city": "Toronto", "province": "ON", "country": "Canada", "postal": "M5S 2J4", "coordinates": {"latitude": 43.66572, "longitude": -79.40265}, "last_updated": "2020-06-14 09:38:05.0"}, "127": {"id": "127", "code": "AD", "tags": null, "name": "Enrolment Services", "short_name": "Enrol Serv", "street": "172 St. George Street", "city": "Toronto", "province": "ON", "country": "Canada", "postal": "M5R 0A3", "coordinates": {"latitude": 43.66812, "longitude": -79.40046}, "last_updated": "2020-06-14 09:38:05.0"}, "128": {"id": "128", "code": "JH", "tags": null, "name": "Jackman Humanities Building", "short_name": "Jackman", "street": "170  St. George Street", "city": "Toronto", "province": "ON", "country": "Canada", "postal": "M5R 2M8", "coordinates": {"latitude": 43.66766, "longitude": -79.40032}, "last_updated": "2020-06-14 09:38:05.0"}, "129": {"id": "129", "code": "ER", "tags": null, "name": "Early Learning Centre", "short_name": "Early Learn", "street": "7  Glen Morris Street", "city": "Toronto", "province": "ON", "country": "Canada", "postal": "M5S 1H9", "coordinates": {"latitude": 43.66391, "longitude": -79.40115}, "last_updated": "2020-06-14 09:38:05.0"}, "130": {"id": "130", "code": "WO", "tags": null, "name": "Woodsworth College Residence", "short_name": "WoodswrthRez", "street": "321  Bloor St. West", "city": "Toronto", "province": "ON", "country": "Canada", "postal": "M5S 1S5", "coordinates": {"latitude": 43.66733, "longitude": -79.39933}, "last_updated": "2020-06-14 09:38:05.0"}, "131": {"id": "131", "code": "NR", "tags": null, "name": "New College III", "short_name": "New Coll III", "street": "45  Willcocks Street", "city": "Toronto", "province": "ON", "country": "Canada", "postal": "M5S 1C7", "coordinates": {"latitude": 43.66101, "longitude": -79.40078}, "last_updated": "2020-06-14 09:38:05.0"}, "132": {"id": "132", "code": "IN", "tags": null, "name": "Innis College", "short_name": "Innis Coll", "street": "2  Sussex Avenue", "city": "Toronto", "province": "ON", "country": "Canada", "postal": "M5S 1J5", "coordinates": {"latitude": 43.66557, "longitude": -79.39948}, "last_updated": "2020-06-14 09:38:05.0"}, "133": {"id": "133", "code": "IS", "tags": null, "name": "Innis College Student Residence", "short_name": "Innis Resid", "street": "111  St. George Street", "city": "Toronto", "province": "ON", "country": "Canada", "postal": "M5S 2E8", "coordinates": {"latitude": 43.66592, "longitude": -79.39877}, "last_updated": "2020-06-14 09:38:05.0"}, "134": {"id": "134", "code": "RT", "tags": null, "name": "Rotman School of Management", "short_name": "RotmanSchool", "street": "105  St. George Street", "city": "Toronto", "province": "ON", "country": "Canada", "postal": "M5S 3E6", "coordinates": {"latitude": 43.66519, "longitude": -79.39829}, "last_updated": "2020-06-14 09:38:05.0"}, "138": {"id": "138", "code": "CA", "tags": null, "name": "Huron Street-370", "short_name": "Huron St-370", "street": "370  Huron Street", "city": "Toronto", "province": "ON", "country": "Canada", "postal": "M5S 2G4", "coordinates": {"latitude": 43.66457, "longitude": -79.40069}, "last_updated": "2020-06-14 09:38:05.0"}, "142": {"id": "142", "code": "SA", "tags": null, "name": "Spadina Ave-713 (Demolished March 2019)", "short_name": "Spadina-713", "street": "713  Spadina Avenue", "city": "Toronto", "province": "ON", "country": "Canada", "postal": "M5S 2J4", "coordinates": {"latitude": 43.66601, "longitude": -79.40284}, "last_updated": "2020-06-14 09:38:05.0"}, "143": {"id": "143", "code": "KS", "tags": null, "name": "Koffler Student Services Centre", "short_name": "Koffler Centre", "street": "214  College Street", "city": "Toronto", "province": "ON", "country": "Canada", "postal": "M5T 2Z9", "coordinates": {"latitude": 43.65917, "longitude": -79.39689}, "last_updated": "2020-06-14 09:38:05.0"}, "145": {"id": "145", "code": "KP", "tags": null, "name": "Koffler House", "short_name": "Koffler Hse", "street": "569  Spadina Crescent", "city": "Toronto", "province": "ON", "country": "Canada", "postal": "M5S 2J7", "coordinates": {"latitude": 43.66061, "longitude": -79.40059}, "last_updated": "2020-06-14 09:38:05.0"}, "146": {"id": "146", "code": "SX", "tags": null, "name": "Sussex Avenue-40", "short_name": "Sussex-40", "street": "40  Sussex Avenue", "city": "Toronto", "province": "ON", "country": "Canada", "postal": "M5S 1J7", "coordinates": {"latitude": 43.66501, "longitude": -79.40181}, "last_updated": "2020-06-14 09:38:05.0"}, "151": {"id": "151", "code": "LG", "tags": null, "name": "Fasken Martineau Building", "short_name": "Martineau", "street": "655  Spadina Avenue", "city": "Toronto", "province": "ON", "country": "Canada", "postal": "M5S 2H9", "coordinates": {"latitude": 43.66406, "longitude": -79.40203}, "last_updated": "2020-06-14 09:38:05.0"}, "152": {"id": "152", "code": "RU", "tags": null, "name": "Rehabilitation Sciences Building", "short_name": "Rehab Sci", "street": "500  University Avenue", "city": "Toronto", "province": "ON", "country": "Canada", "postal": "M5G 1V7", "coordinates": {"latitude": 43.65546, "longitude": -79.38917}, "last_updated": "2020-06-14 09:38:05.0"}, "154": {"id": "154", "code": "HS", "tags": null, "name": "Health Sciences Building", "short_name": "Health Sci", "street": "155  College Street", "city": "Toronto", "province": "ON", "country": "Canada", "postal": "M5T 1P8", "coordinates": {"latitude": 43.65904, "longitude": -79.39288}, "last_updated": "2020-06-14 09:38:05.0"}, "155": {"id": "155", "code": "EX", "tags": null, "name": "Exam Centre", "short_name": "Exam Centre", "street": "255  McCaul Street", "city": "Toronto", "province": "ON", "country": "Canada", "postal": "M5T 1W7", "coordinates": {"latitude": 43.65848, "longitude": -79.39286}, "last_updated": "2020-06-14 09:38:05.0"}, "156": {"id": "156", "code": "OA", "tags": null, "name": "McCaul Street-263", "short_name": "McCaul-263", "street": "263  McCaul Street", "city": "Toronto", "province": "ON", "country": "Canada", "postal": "M5T 1W7", "coordinates": {"latitude": 43.65881, "longitude": -79.3925}, "last_updated": "2020-06-14 09:38:05.0"}, "158": {"id": "158", "code": "CN", "tags": null, "name": "Chestnut Residence and Conference Centre", "short_name": "Chestnut-89", "street": "89  Chestnut Street", "city": "Toronto", "province": "ON", "country": "Canada", "postal": "M5G 1R1", "coordinates": {"latitude": 43.65431, "longitude": -79.38536}, "last_updated": "2020-06-14 09:38:05.0"}, "160": {"id": "160", "code": "DC", "tags": null, "name": "Terrence Donnelly Ctr for Cellular & Biomolecular Res", "short_name": "DonnellyCCBR", "street": "160  College Street", "city": "Toronto", "province": "ON", "country": "Canada", "postal": "M5S 3E1", "coordinates": {"latitude": 43.66016, "longitude": -79.39288}, "last_updated": "2020-06-14 09:38:05.0"}, "161": {"id": "161", "code": "PB", "tags": null, "name": "Leslie L. Dan Pharmacy Building", "short_name": "Dan Pharmacy", "street": "144  College Street", "city": "Toronto", "province": "ON", "country": "Canada", "postal": "M5S 3M2", "coordinates": {"latitude": 43.65996, "longitude": -79.3917}, "last_updated": "2020-06-14 09:38:05.0"}, "171": {"id": "171", "code": "TT", "tags": null, "name": "Spadina Ave-455", "short_name": "Spadina-455", "street": "455  Spadina Avenue", "city": "Toronto", "province": "ON", "country": "Canada", "postal": "M5S 2G8", "coordinates": {"latitude": 43.65821, "longitude": -79.3997}, "last_updated": "2020-06-14 09:38:05.0"}, "172": {"id": "172", "code": "MM", "tags": null, "name": "Macdonald-Mowat House", "short_name": "Mowat House", "street": "63  St. George Street", "city": "Toronto", "province": "ON", "country": "Canada", "postal": "M5S 2Z9", "coordinates": {"latitude": 43.66177, "longitude": -79.39705}, "last_updated": "2020-06-14 09:38:05.0"}, "179": {"id": "179", "code": "CZ", "tags": null, "name": "College Street-229", "short_name": "College-229", "street": "229  College Street", "city": "Toronto", "province": "ON", "country": "Canada", "postal": "M5T 1R4", "coordinates": {"latitude": 43.65816, "longitude": -79.39745}, "last_updated": "2020-06-14 09:38:05.0"}, "189": {"id": "189", "code": "FA", "tags": null, "name": "Spadina Avenue-720", "short_name": "Spadina-720", "street": "720  Spadina Avenue", "city": "Toronto", "province": "ON", "country": "Canada", "postal": "M5S 2T9", "coordinates": {"latitude": 43.6654, "longitude": -79.40363}, "last_updated": "2020-06-14 09:38:05.0"}, "192": {"id": "192", "code": "EP", "tags": null, "name": "Stewart Building", "short_name": "StewartBldg", "street": "149 College Street", "city": "Toronto", "province": "ON", "country": "Canada", "postal": "M5T 1P5", "coordinates": {"latitude": 43.65923, "longitude": -79.39207}, "last_updated": "2020-06-14 09:38:05.0"}, "193": {"id": "193", "code": "ED", "tags": null, "name": "Edward Street-123", "short_name": "Edward-123", "street": "123 Edward Street", "city": "Toronto", "province": "ON", "country": "Canada", "postal": null, "coordinates": {"latitude": 43.65564, "longitude": -79.38677}, "last_updated": "2020-06-14 09:38:05.0"}, "194": {"id": "194", "code": "KT", "tags": null, "name": "TWH - Krembil Discovery Tower", "short_name": "TWH-Krembil", "street": "399 Bathurst Street", "city": "Toronto", "province": "ON", "country": "Canada", "postal": null, "coordinates": {"latitude": 43.65413, "longitude": -79.40518}, "last_updated": "2020-06-14 09:38:05.0"}, "195": {"id": "195", "code": "M2", "tags": null, "name": "MARS 2", "short_name": "MARS 2", "street": "661 University Avenue", "city": "Toronto", "province": "ON", "country": "Canada", "postal": null, "coordinates": {"latitude": 43.65958, "longitude": -79.38972}, "last_updated": "2020-06-14 09:38:05.0"}, "401": {"id": "401", "code": "LC", "tags": null, "name": "Loretto College", "short_name": "Loretto", "street": "70  St. Mary Street", "city": "Toronto", "province": "ON", "country": "Canada", "postal": "M5S 1J3", "coordinates": {"latitude": 43.66736, "longitude": -79.3901}, "last_updated": "2020-06-14 09:38:05.0"}, "405": {"id": "405", "code": "EH", "tags": null, "name": "Elmsley Hall", "short_name": "Elmsley", "street": "81  St. Mary Street", "city": "Toronto", "province": "ON", "country": "Canada", "postal": "M5S 1J4", "coordinates": {"latitude": 43.66689, "longitude": -79.39027}, "last_updated": "2020-06-14 09:38:05.0"}, "407": {"id": "407", "code": "AH", "tags": null, "name": "Muzzo Family Alumni Hall", "short_name": "Alumni Hall", "street": "121  St. Joseph Street", "city": "Toronto", "province": "ON", "country": "Canada", "postal": "M5S 1J4", "coordinates": {"latitude": 43.66479, "longitude": -79.39015}, "last_updated": "2020-06-14 09:38:05.0"}, "411": {"id": "411", "code": "BR", "tags": null, "name": "Brennan Hall", "short_name": "Brennan Hall", "street": "81  St. Mary Street", "city": "Toronto", "province": "ON", "country": "Canada", "postal": "M5S 1J4", "coordinates": {"latitude": 43.66636, "longitude": -79.38986}, "last_updated": "2020-06-14 09:38:05.0"}, "413": {"id": "413", "code": "BS", "tags": null, "name": "St. Basil's Church", "short_name": "Basil Church", "street": "50  St. Joseph Street", "city": "Toronto", "province": "ON", "country": "Canada", "postal": "M5S IJ4", "coordinates": {"latitude": 43.66632, "longitude": -79.38917}, "last_updated": "2020-06-14 09:38:05.0"}, "415": {"id": "415", "code": "OH", "tags": null, "name": "Odette (Louis) Hall", "short_name": "Odette Hall", "street": "50  St. Joseph Street", "city": "Toronto", "province": "ON", "country": "Canada", "postal": "M5S 1J4", "coordinates": {"latitude": 43.66635, "longitude": -79.38891}, "last_updated": "2020-06-14 09:38:05.0"}, "416": {"id": "416", "code": "WN", "tags": null, "name": "Windle House", "short_name": "Windle House", "street": "5  Elmsley Place", "city": "Toronto", "province": "ON", "country": "Canada", "postal": null, "coordinates": {"latitude": 43.66601, "longitude": -79.38949}, "last_updated": "2020-06-14 09:38:05.0"}, "417": {"id": "417", "code": "PH", "tags": null, "name": "Phelan House", "short_name": "Phelan", "street": "3  Elmsley Place", "city": "Toronto", "province": "ON", "country": "Canada", "postal": null, "coordinates": {"latitude": 43.6658, "longitude": -79.38944}, "last_updated": "2020-06-14 09:38:05.0"}, "418": {"id": "418", "code": "PI", "tags": null, "name": "Queen's Park Crescent East-59", "short_name": "QP Cres E-59", "street": "59  Queen's Park Crescent East", "city": "Toronto", "province": "ON", "country": "Canada", "postal": "M5S 2C4", "coordinates": {"latitude": 43.66569, "longitude": -79.39104}, "last_updated": "2020-06-14 09:38:05.0"}, "419": {"id": "419", "code": "MH", "tags": null, "name": "More House", "short_name": "More House", "street": "59  Queen's Park Crescent East", "city": "Toronto", "province": "ON", "country": "Canada", "postal": "M5S 2C4", "coordinates": {"latitude": 43.6656, "longitude": -79.39086}, "last_updated": "2020-06-14 09:38:05.0"}, "420": {"id": "420", "code": "FS", "tags": null, "name": "Fisher House", "short_name": "Fisher House", "street": "59  Queen's Park Crescent East", "city": "Toronto", "province": "ON", "country": "Canada", "postal": "M5S 2C4", "coordinates": {"latitude": 43.66546, "longitude": -79.39081}, "last_updated": "2020-06-14 09:38:05.0"}, "421": {"id": "421", "code": "TF", "tags": null, "name": "Teefy Hall", "short_name": "Teefy Hall", "street": "57  Queen's Park Crescent East", "city": "Toronto", "province": "ON", "country": "Canada", "postal": "M5S 2C4", "coordinates": {"latitude": 43.66532, "longitude": -79.39087}, "last_updated": "2020-06-14 09:38:05.0"}, "422": {"id": "422", "code": "GH", "tags": null, "name": "Gilson House", "short_name": "Gilson House", "street": "8  Elmsley Place", "city": "Toronto", "province": "ON", "country": "Canada", "postal": null, "coordinates": {"latitude": 43.66574, "longitude": -79.39004}, "last_updated": "2020-06-14 09:38:05.0"}, "423": {"id": "423", "code": null, "tags": null, "name": "Maritain House", "short_name": "Maritain", "street": "6  Elmsley Place", "city": "Toronto", "province": "ON", "country": "Canada", "postal": null, "coordinates": {"latitude": 43.66564, "longitude": -79.39002}, "last_updated": "2020-06-14 09:38:05.0"}, "425": {"id": "425", "code": "SV", "tags": null, "name": "Sullivan House", "short_name": "Sullivan", "street": "96  St. Joseph Street", "city": "Toronto", "province": "ON", "country": "Canada", "postal": null, "coordinates": {"latitude": 43.6654, "longitude": -79.38998}, "last_updated": "2020-06-14 09:38:05.0"}, "426": {"id": "426", "code": "CR", "tags": null, "name": "Carr Hall", "short_name": "Carr Hall", "street": "100  St. Joseph Street", "city": "Toronto", "province": "ON", "country": "Canada", "postal": "M5S 1J4", "coordinates": {"latitude": 43.66523, "longitude": -79.39051}, "last_updated": "2020-06-14 09:38:05.0"}, "427": {"id": "427", "code": "MZ", "tags": null, "name": "McCorkell House", "short_name": "McCorkell", "street": "2  Elmsley Place", "city": "Toronto", "province": "ON", "country": "Canada", "postal": null, "coordinates": {"latitude": 43.66543, "longitude": -79.38987}, "last_updated": "2020-06-14 09:38:05.0"}, "428": {"id": "428", "code": "BH", "tags": null, "name": "Founders House", "short_name": "Founders", "street": "1  Elmsley Place", "city": "Toronto", "province": "ON", "country": "Canada", "postal": null, "coordinates": {"latitude": 43.66551, "longitude": -79.38935}, "last_updated": "2020-06-14 09:38:05.0"}, "429": {"id": "429", "code": "KL", "tags": null, "name": "J. M. Kelly Library", "short_name": "J.M. Kelly", "street": "113  St. Joseph Street", "city": "Toronto", "province": "ON", "country": "Canada", "postal": "M5S 1J4", "coordinates": {"latitude": 43.66485, "longitude": -79.38953}, "last_updated": "2020-06-14 09:38:05.0"}, "433": {"id": "433", "code": "XQ", "tags": null, "name": "Queen's Park Crescent East-43", "short_name": "Queen's E-43", "street": "43  Queen's Park Crescent East", "city": "Toronto", "province": "ON", "country": "Canada", "postal": "M5S 2C3", "coordinates": {"latitude": 43.66455, "longitude": -79.39059}, "last_updated": "2020-06-14 09:38:05.0"}, "434": {"id": "434", "code": "TH", "tags": null, "name": "Toronto School of Theology", "short_name": "T.S.T.", "street": "47  Queen's Park Crescent East", "city": "Toronto", "province": "ON", "country": "Canada", "postal": "M5S 2C3", "coordinates": {"latitude": 43.66476, "longitude": -79.39065}, "last_updated": "2020-06-14 09:38:05.0"}, "435": {"id": "435", "code": "SR", "tags": null, "name": "Sam Sorbara Hall Student Residence", "short_name": "Sorbara Hall", "street": "70  St. Joseph Street", "city": "Toronto", "province": "ON", "country": "Canada", "postal": null, "coordinates": {"latitude": 43.66576, "longitude": -79.38904}, "last_updated": "2020-06-14 09:38:05.0"}, "478": {"id": "478", "code": "RG", "tags": null, "name": "Regis College", "short_name": "Regis", "street": "100 Wellesley Street West", "city": "Toronto", "province": "ON", "country": "Canada", "postal": "M5S 1C5", "coordinates": {"latitude": 43.66396, "longitude": -79.39028}, "last_updated": "2020-06-14 09:38:05.0"}, "501": {"id": "501", "code": "VC", "tags": null, "name": "Victoria College", "short_name": "Victoria", "street": "91  Charles Street West", "city": "Toronto", "province": "ON", "country": "Canada", "postal": "M5S 1K7", "coordinates": {"latitude": 43.6669, "longitude": -79.39201}, "last_updated": "2020-06-14 09:38:05.0"}, "502": {"id": "502", "code": "EM", "tags": null, "name": "Emmanuel College", "short_name": "Emmanuel", "street": "75  Queen's Park", "city": "Toronto", "province": "ON", "country": "Canada", "postal": "M5S 1K7", "coordinates": {"latitude": 43.66673, "longitude": -79.39282}, "last_updated": "2020-06-14 09:38:05.0"}, "503": {"id": "503", "code": "BC", "tags": null, "name": "Birge-Carnegie Library", "short_name": "Birge-Carnegie", "street": "75a   Queen's Park", "city": "Toronto", "province": "ON", "country": "Canada", "postal": "M5S 1K7", "coordinates": {"latitude": 43.66711, "longitude": -79.39296}, "last_updated": "2020-06-14 09:38:05.0"}, "504": {"id": "504", "code": "BW", "tags": null, "name": "Burwash Hall", "short_name": "Burwash Hall", "street": "89  Charles Street West", "city": "Toronto", "province": "ON", "country": "Canada", "postal": "M5S 1K6", "coordinates": {"latitude": 43.66744, "longitude": -79.39179}, "last_updated": "2020-06-14 09:38:05.0"}, "505": {"id": "505", "code": "LB", "tags": null, "name": "Burwash Residence (Lower Houses)", "short_name": "BurwashLower", "street": "89  Charles Street West", "city": "Toronto", "province": "ON", "country": "Canada", "postal": "M5S 1K6", "coordinates": {"latitude": 43.66638, "longitude": -79.39085}, "last_updated": "2020-06-14 09:38:05.0"}, "505A": {"id": "505A", "code": "UB", "tags": null, "name": "Burwash Residence (Upper Houses)", "short_name": "BurwashUpper", "street": "89  Charles Street West", "city": "Toronto", "province": "ON", "country": "Canada", "postal": "M5S 1K6", "coordinates": {"latitude": 43.66692, "longitude": -79.39106}, "last_updated": "2020-06-14 09:38:05.0"}, "506": {"id": "506", "code": "AN", "tags": null, "name": "Annesley Hall", "short_name": "Annesley", "street": "95  Queen's Park", "city": "Toronto", "province": "ON", "country": "Canada", "postal": "M5S 2C7", "coordinates": {"latitude": 43.66777, "longitude": -79.39296}, "last_updated": "2020-06-14 09:38:05.0"}, "507": {"id": "507", "code": "GC", "tags": null, "name": "Goldring Student Centre", "short_name": "Goldring Ctr", "street": "150  Charles Street West", "city": "Toronto", "province": "ON", "country": "Canada", "postal": "M5S 1K9", "coordinates": {"latitude": 43.66764, "longitude": -79.3926}, "last_updated": "2020-06-14 09:38:05.0"}, "508": {"id": "508", "code": "MG", "tags": null, "name": "Margaret Addison Hall", "short_name": "MargAddison", "street": "140  Charles Street West", "city": "Toronto", "province": "ON", "country": "Canada", "postal": "M5S 1K9", "coordinates": {"latitude": 43.66826, "longitude": -79.39252}, "last_updated": "2020-06-14 09:38:05.0"}, "509": {"id": "509", "code": "BT", "tags": null, "name": "Isabel Bader Theatre", "short_name": "BaderTheatre", "street": "93  Charles St. West", "city": "Toronto", "province": "ON", "country": "Canada", "postal": "M5S 1K9", "coordinates": {"latitude": 43.66723, "longitude": -79.39245}, "last_updated": "2020-06-14 09:38:05.0"}, "513": {"id": "513", "code": "SN", "tags": null, "name": "Stephenson House", "short_name": "Stephenson", "street": "63  Charles Street West", "city": "Toronto", "province": "ON", "country": "Canada", "postal": "M5S 1K5", "coordinates": {"latitude": 43.66783, "longitude": -79.3899}, "last_updated": "2020-06-14 09:38:05.0"}, "514": {"id": "514", "code": "PR", "tags": null, "name": "E.J. Pratt Library", "short_name": "Pratt Library", "street": "71  Queen's Park Crescent East", "city": "Toronto", "province": "ON", "country": "Canada", "postal": "M5S 1K7", "coordinates": {"latitude": 43.66634, "longitude": -79.39135}, "last_updated": "2020-06-14 09:38:05.0"}, "515": {"id": "515", "code": "NF", "tags": null, "name": "Northrop Frye Hall", "short_name": "Northrop Frye", "street": "73  Queen's Park Crescent East", "city": "Toronto", "province": "ON", "country": "Canada", "postal": "M5S 1K7", "coordinates": {"latitude": 43.66641, "longitude": -79.39218}, "last_updated": "2020-06-14 09:38:05.0"}, "516": {"id": "516", "code": "LH", "tags": null, "name": "Charles Street West-65", "short_name": "CharlesStW-65", "street": "65  Charles Street West", "city": "Toronto", "province": "ON", "country": "Canada", "postal": "M5S 1K5", "coordinates": {"latitude": 43.66784, "longitude": -79.39}, "last_updated": "2020-06-14 09:38:05.0"}, "518": {"id": "518", "code": "RJ", "tags": null, "name": "Rowell Jackman Hall", "short_name": "Jackman Hall", "street": "85  Charles Street West", "city": "Toronto", "province": "ON", "country": "Canada", "postal": "M5S 1K5", "coordinates": {"latitude": 43.66742, "longitude": -79.39082}, "last_updated": "2020-06-14 09:38:05.0"}, "528": {"id": "528", "code": "LI", "tags": null, "name": "Lillian Massey Building", "short_name": "Lillian Massey", "street": "125 Queen's Park", "city": "Toronto", "province": "ON", "country": "Canada", "postal": "M5S 2C7", "coordinates": {"latitude": 43.66835, "longitude": -79.39367}, "last_updated": "2020-06-14 09:38:05.0"}, "575": {"id": "575", "code": "KX", "tags": null, "name": "Knox College", "short_name": "Knox", "street": "59  St. George Street", "city": "Toronto", "province": "ON", "country": "Canada", "postal": "M5S 2E6", "coordinates": {"latitude": 43.66136, "longitude": -79.39696}, "last_updated": "2020-06-14 09:38:05.0"}, "575A": {"id": "575A", "code": "VI", "tags": null, "name": "Nona Macdonald Visitors Centre", "short_name": "Visitors Ctr", "street": "25 King's College Circle", "city": "Toronto", "province": "ON", "country": "Canada", "postal": "M5S 1A1", "coordinates": {"latitude": 43.66119, "longitude": -79.39627}, "last_updated": "2020-06-14 09:38:05.0"}, "600": {"id": "600", "code": "TC", "tags": null, "name": "Trinity College", "short_name": "Trinity College", "street": "6  Hoskin Avenue", "city": "Toronto", "province": "ON", "country": "Canada", "postal": "M5S 1H8", "coordinates": {"latitude": 43.66514, "longitude": -79.39556}, "last_updated": "2020-06-14 09:38:05.0"}, "602": {"id": "602", "code": "LA", "tags": null, "name": "Gerald Larkin Building", "short_name": "Larkin Bldg", "street": "15  Devonshire Place", "city": "Toronto", "province": "ON", "country": "Canada", "postal": "M5S 1H8", "coordinates": {"latitude": 43.66567, "longitude": -79.39691}, "last_updated": "2020-06-14 09:38:05.0"}, "603": {"id": "603", "code": "GI", "tags": null, "name": "George Ignatieff Theatre", "short_name": "G Ignatieff", "street": "15  Devonshire Place", "city": "Toronto", "province": "ON", "country": "Canada", "postal": "M5S 1H8", "coordinates": {"latitude": 43.66582, "longitude": -79.3971}, "last_updated": "2020-06-14 09:38:05.0"}, "608": {"id": "608", "code": "HI", "tags": null, "name": "St. Hilda's College", "short_name": "St. Hilda's", "street": "44  Devonshire Place", "city": "Toronto", "province": "ON", "country": "Canada", "postal": "M5S 2E2", "coordinates": {"latitude": 43.66573, "longitude": -79.39782}, "last_updated": "2020-06-14 09:38:05.0"}, "675": {"id": "675", "code": "WY", "tags": null, "name": "Wycliffe College", "short_name": "Wycliffe", "street": "5  Hoskin Avenue", "city": "Toronto", "province": "ON", "country": "Canada", "postal": "M5S 1H7", "coordinates": {"latitude": 43.66453, "longitude": -79.39507}, "last_updated": "2020-06-14 09:38:05.0"}, "790": {"id": "790", "code": "C1", "tags": null, "name": "Charles St. West-30", "short_name": "CharlesW-30", "street": "30 Charles Street West", "city": "Toronto", "province": "ON", "country": "Canada", "postal": "M4Y 1R5", "coordinates": {"latitude": 43.66899, "longitude": -79.38648}, "last_updated": "2020-06-14 09:38:05.0"}, "791": {"id": "791", "code": "C2", "tags": null, "name": "Charles St. West-35", "short_name": "CharlesW-30", "street": "35 Charles Street West", "city": "Toronto", "province": "ON", "country": "Canada", "postal": "M4Y 1R6", "coordinates": {"latitude": 43.6681, "longitude": -79.38765}, "last_updated": "2020-06-14 09:38:05.0"}, "301": {"id": "301", "code": null, "tags": null, "name": "Lislehurst (Principal's Residence)", "short_name": "Lislehurst", "street": "3369 Principal's Road", "city": "Mississauga", "province": "ON", "country": "Canada", "postal": null, "coordinates": {"latitude": 43.55468, "longitude": -79.66877}, "last_updated": "2020-06-14 09:38:06.0"}, "302": {"id": "302", "code": null, "tags": null, "name": "Forensic Anthropology Field School", "short_name": "Forensic Schl", "street": "3245 Principal's Road", "city": "Mississauga", "province": "ON", "country": "Canada", "postal": null, "coordinates": {"latitude": 43.55291, "longitude": -79.66553}, "last_updated": "2020-06-14 09:38:06.0"}, "312": {"id": "312", "code": null, "tags": null, "name": "Central Utilities Plant", "short_name": "Central Util", "street": "1630 Outer Circle", "city": "Mississauga", "province": "ON", "country": "Canada", "postal": null, "coordinates": {"latitude": 43.55179, "longitude": -79.66213}, "last_updated": "2020-06-14 09:38:06.0"}, "313": {"id": "313", "code": "DV", "tags": null, "name": "William G. Davis Building", "short_name": "Davis Bldg", "street": "1867 Inner Circle", "city": "Mississauga", "province": "ON", "country": "Canada", "postal": "L5L 1C6", "coordinates": {"latitude": 43.54858, "longitude": -79.66148}, "last_updated": "2020-06-14 09:38:06.0"}, "314": {"id": "314", "code": "KN", "tags": null, "name": "Kaneff Centre for Mgmt & Social Sciences", "short_name": "Kaneff", "street": "1833 Inner Circle", "city": "Mississauga", "province": "ON", "country": "Canada", "postal": "L5L 1C6", "coordinates": {"latitude": 43.54839, "longitude": -79.66339}, "last_updated": "2020-06-14 09:38:06.0"}, "314A": {"id": "314A", "code": "KN", "tags": null, "name": "Innovation Complex", "short_name": "Innov Comp", "street": "1833 Inner Circle", "city": "Mississauga", "province": "ON", "country": "Canada", "postal": null, "coordinates": {"latitude": 43.54837, "longitude": -79.66292}, "last_updated": "2020-06-14 09:38:06.0"}, "316": {"id": "316", "code": "DW", "tags": null, "name": "Erindale Studio Theatre", "short_name": "Erindale Thtr", "street": "1515 Outer Circle", "city": "Mississauga", "province": "ON", "country": "Canada", "postal": "L5L 1C6", "coordinates": {"latitude": 43.54993, "longitude": -79.66631}, "last_updated": "2020-06-14 09:38:06.0"}, "317": {"id": "317", "code": null, "tags": null, "name": "Paleomagnetism Laboratory", "short_name": "Paleomag Lab", "street": "3275 Principal's Road", "city": "Mississauga", "province": "ON", "country": "Canada", "postal": "L5L 1C6", "coordinates": {"latitude": 43.55381, "longitude": -79.66586}, "last_updated": "2020-06-14 09:38:06.0"}, "323A": {"id": "323A", "code": null, "tags": null, "name": "Schreiberwood Res - Block A (Phase I)", "short_name": "Schreiberwood-A", "street": "3400 Residence Road", "city": "Mississauga", "province": "ON", "country": "Canada", "postal": "L5L 1J7", "coordinates": {"latitude": 43.54922, "longitude": -79.6683}, "last_updated": "2020-06-14 09:38:06.0"}, "323B": {"id": "323B", "code": null, "tags": null, "name": "Schreiberwood Res - Block B (Phase I)", "short_name": "Schreiberwood-B", "street": "3400 Residence Road", "city": "Mississauga", "province": "ON", "country": "Canada", "postal": "L5L 1J7", "coordinates": {"latitude": 43.54913, "longitude": -79.66788}, "last_updated": "2020-06-14 09:38:06.0"}, "323C": {"id": "323C", "code": null, "tags": null, "name": "Schreiberwood Res - Block C (Phase I)", "short_name": "Schreiberwood-C", "street": "3400 Residence Road", "city": "Mississauga", "province": "ON", "country": "Canada", "postal": "L5L 1J7", "coordinates": {"latitude": 43.54872, "longitude": -79.6677}, "last_updated": "2020-06-14 09:38:06.0"}, "323D": {"id": "323D", "code": null, "tags": null, "name": "Schreiberwood Res - Block D (Phase I)", "short_name": "Schreiberwood-D", "street": "3400 Residence Road", "city": "Mississauga", "province": "ON", "country": "Canada", "postal": "L5L 1J7", "coordinates": {"latitude": 43.54907, "longitude": -79.66738}, "last_updated": "2020-06-14 09:38:06.0"}, "323E": {"id": "323E", "code": null, "tags": null, "name": "Schreiberwood Res - Block E (Phase I)", "short_name": "Schreiberwood-E", "street": "3401 Residence Road", "city": "Mississauga", "province": "ON", "country": "Canada", "postal": "L5L 1J7", "coordinates": {"latitude": 43.54972, "longitude": -79.66779}, "last_updated": "2020-06-14 09:38:06.0"}, "323F": {"id": "323F", "code": null, "tags": null, "name": "Schreiberwood Res - Block F (Phase I)", "short_name": "Schreiberwood-F", "street": "3401 Residence Road", "city": "Mississauga", "province": "ON", "country": "Canada", "postal": "L5L 1J7", "coordinates": {"latitude": 43.54943, "longitude": -79.66744}, "last_updated": "2020-06-14 09:38:06.0"}, "323G": {"id": "323G", "code": null, "tags": null, "name": "Schreiberwood Res - Block G (Phase I)", "short_name": "Schreiberwood-G", "street": "3401 Residence Road", "city": "Mississauga", "province": "ON", "country": "Canada", "postal": "L5L 1J7", "coordinates": {"latitude": 43.54962, "longitude": -79.6671}, "last_updated": "2020-06-14 09:38:06.0"}, "323H": {"id": "323H", "code": null, "tags": null, "name": "McLuhan Court Res - Block H (Phase II)", "short_name": "McLuhan - H", "street": "3330 Residence Road", "city": "Mississauga", "province": "ON", "country": "Canada", "postal": "L5L 1J7", "coordinates": {"latitude": 43.54789, "longitude": -79.66572}, "last_updated": "2020-06-14 09:38:06.0"}, "323I": {"id": "323I", "code": null, "tags": null, "name": "McLuhan Court Res - Block I (Phase II)", "short_name": "McLuhan-I", "street": "3330 Residence Road", "city": "Mississauga", "province": "ON", "country": "Canada", "postal": "L5L 1J7", "coordinates": {"latitude": 43.5475, "longitude": -79.66595}, "last_updated": "2020-06-14 09:38:06.0"}, "323J": {"id": "323J", "code": null, "tags": null, "name": "McLuhan Court Res - Block J (Phase II)", "short_name": "McLuhan-J", "street": "3330 Residence Road", "city": "Mississauga", "province": "ON", "country": "Canada", "postal": "L5L 1J7", "coordinates": {"latitude": 43.54772, "longitude": -79.6666}, "last_updated": "2020-06-14 09:38:06.0"}, "323K": {"id": "323K", "code": null, "tags": null, "name": "McLuhan Court Res - Block K (Phase II)", "short_name": "McLuhan-K", "street": "3330 Residence Road", "city": "Mississauga", "province": "ON", "country": "Canada", "postal": "L5L 1J7", "coordinates": {"latitude": 43.54806, "longitude": -79.66628}, "last_updated": "2020-06-14 09:38:06.0"}, "323L": {"id": "323L", "code": null, "tags": null, "name": "Putnam Place Res - Block L  (Phase III)", "short_name": "Putnam-L", "street": "1930 Outer Circle", "city": "Mississauga", "province": "ON", "country": "Canada", "postal": "L5L 1J7", "coordinates": {"latitude": 43.54647, "longitude": -79.66459}, "last_updated": "2020-06-14 09:38:06.0"}, "323M": {"id": "323M", "code": null, "tags": null, "name": "Putnam Place Res - Block M (Phase III)", "short_name": "Putman-M", "street": "1930 Outer Circle", "city": "Mississauga", "province": "ON", "country": "Canada", "postal": "L5L 1J7", "coordinates": {"latitude": 43.54666, "longitude": -79.66507}, "last_updated": "2020-06-14 09:38:06.0"}, "323N": {"id": "323N", "code": null, "tags": null, "name": "Putnam Place Res - Block N (Phase III)", "short_name": "Putman-N", "street": "1930 Outer Circle", "city": "Mississauga", "province": "ON", "country": "Canada", "postal": "L5L 1J7", "coordinates": {"latitude": 43.54695, "longitude": -79.66511}, "last_updated": "2020-06-14 09:38:06.0"}, "323O": {"id": "323O", "code": null, "tags": null, "name": "Putnam Place Res - Block O (Phase III)", "short_name": "Putnam-O", "street": "1930 Outer Circle", "city": "Mississauga", "province": "ON", "country": "Canada", "postal": "L5L 1J7", "coordinates": {"latitude": 43.54688, "longitude": -79.66449}, "last_updated": "2020-06-14 09:38:06.0"}, "323P": {"id": "323P", "code": null, "tags": null, "name": "Leacock Lane Res - Block P (Phase IV)", "short_name": "Leacock-P", "street": "1900 Outer Circle", "city": "Mississauga", "province": "ON", "country": "Canada", "postal": "L5L 1J7", "coordinates": {"latitude": 43.54627, "longitude": -79.66256}, "last_updated": "2020-06-14 09:38:06.0"}, "323Q": {"id": "323Q", "code": null, "tags": null, "name": "Leacock Lane Res - Block Q (Phase IV)", "short_name": "Leacock-Q", "street": "1900 Outer Circle", "city": "Mississauga", "province": "ON", "country": "Canada", "postal": "L5L 1J7", "coordinates": {"latitude": 43.54591, "longitude": -79.66286}, "last_updated": "2020-06-14 09:38:06.0"}, "323R": {"id": "323R", "code": null, "tags": null, "name": "Leacock Lane Res - Block R (Phase IV)", "short_name": "Leacock-R", "street": "1900 Outer Circle", "city": "Mississauga", "province": "ON", "country": "Canada", "postal": "L5L 1J7", "coordinates": {"latitude": 43.54581, "longitude": -79.66356}, "last_updated": "2020-06-14 09:38:06.0"}, "323S": {"id": "323S", "code": null, "tags": null, "name": "Leacock Lane Res - Block S (Phase IV)", "short_name": "Leacock-S", "street": "1900 Outer Circle", "city": "Mississauga", "province": "ON", "country": "Canada", "postal": "L5L 1J7", "coordinates": {"latitude": 43.54616, "longitude": -79.66311}, "last_updated": "2020-06-14 09:38:06.0"}, "323T": {"id": "323T", "code": null, "tags": null, "name": "MaGrath Valley Res - Block T (Phase V)", "short_name": "MaGrath-T", "street": "1499 The Collegeway", "city": "Mississauga", "province": "ON", "country": "Canada", "postal": "L5L 1J7", "coordinates": {"latitude": 43.54605, "longitude": -79.66121}, "last_updated": "2020-06-14 09:38:06.0"}, "323U": {"id": "323U", "code": null, "tags": null, "name": "MaGrath Valley Res - Block U (Phase V)", "short_name": "MaGrath-U", "street": "1499 The Collegeway", "city": "Mississauga", "province": "ON", "country": "Canada", "postal": "L5L 1J7", "coordinates": {"latitude": 43.54555, "longitude": -79.66106}, "last_updated": "2020-06-14 09:38:06.0"}, "323V": {"id": "323V", "code": null, "tags": null, "name": "MaGrath Valley Res - Block V (Phase V)", "short_name": "MaGrath-V", "street": "1499 The Collegeway", "city": "Mississauga", "province": "ON", "country": "Canada", "postal": "L5L 1J7", "coordinates": {"latitude": 43.54548, "longitude": -79.66187}, "last_updated": "2020-06-14 09:38:06.0"}, "323W": {"id": "323W", "code": null, "tags": null, "name": "MaGrath Valley Res - Block W (Phase V)", "short_name": "MaGrath-W", "street": "1499 The Collegeway", "city": "Mississauga", "province": "ON", "country": "Canada", "postal": "L5L 1J7", "coordinates": {"latitude": 43.54574, "longitude": -79.66162}, "last_updated": "2020-06-14 09:38:06.0"}, "323X": {"id": "323X", "code": null, "tags": null, "name": "MaGrath Valley Res - Block X (Phase V)", "short_name": "MaGrath-X", "street": "1499 The Collegeway", "city": "Mississauga", "province": "ON", "country": "Canada", "postal": "L5L 1J7", "coordinates": {"latitude": 43.54588, "longitude": -79.66222}, "last_updated": "2020-06-14 09:38:06.0"}, "323Y": {"id": "323Y", "code": null, "tags": null, "name": "MaGrath Valley Res - Block Y (Phase V)", "short_name": "MaGrath-Y", "street": "1499 The Collegeway", "city": "Mississauga", "province": "ON", "country": "Canada", "postal": "L5L 1J7", "coordinates": {"latitude": 43.5462, "longitude": -79.66178}, "last_updated": "2020-06-14 09:38:06.0"}, "324A": {"id": "324A", "code": null, "tags": null, "name": "Roy Ivor Hall Res - House A (Phase VI)", "short_name": "Ivor Hall-A", "street": "3370 Residence Road", "city": "Mississauga", "province": "ON", "country": "Canada", "postal": "L5L 1C6", "coordinates": {"latitude": 43.54807, "longitude": -79.66701}, "last_updated": "2020-06-14 09:38:06.0"}, "324B": {"id": "324B", "code": null, "tags": null, "name": "Roy Ivor Hall Res - House B (Phase VI)", "short_name": "Ivor Hall-B", "street": "3370 Residence Road", "city": "Mississauga", "province": "ON", "country": "Canada", "postal": "L5L 1C6", "coordinates": {"latitude": 43.5484, "longitude": -79.66744}, "last_updated": "2020-06-14 09:38:06.0"}, "324C": {"id": "324C", "code": null, "tags": null, "name": "Roy Ivor Hall Res - House C (Phase VI)", "short_name": "Ivor Hall-C", "street": "3370 Residence Road", "city": "Mississauga", "province": "ON", "country": "Canada", "postal": "L5L 1C6", "coordinates": {"latitude": 43.54846, "longitude": -79.66699}, "last_updated": "2020-06-14 09:38:06.0"}, "324D": {"id": "324D", "code": null, "tags": null, "name": "Roy Ivor Hall Res - House D (Phase VI)", "short_name": "Ivor Hall-D", "street": "3370 Residence Road", "city": "Mississauga", "province": "ON", "country": "Canada", "postal": "L5L 1C6", "coordinates": {"latitude": 43.54882, "longitude": -79.66698}, "last_updated": "2020-06-14 09:38:06.0"}, "325": {"id": "325", "code": null, "tags": null, "name": "Erindale Hall Residence (Phase VII)", "short_name": "Erindale Hall", "street": "1525 Outer Circle", "city": "Mississauga", "province": "ON", "country": "Canada", "postal": "L5L 6A2", "coordinates": {"latitude": 43.54959, "longitude": -79.66564}, "last_updated": "2020-06-14 09:38:06.0"}, "326": {"id": "326", "code": "OP", "tags": null, "name": "Oscar Peterson Hall (Phase VIII)", "short_name": "OscarPeterson", "street": "3375 Residence Road", "city": "Mississauga", "province": "ON", "country": "Canada", "postal": "L5L 6A2", "coordinates": {"latitude": 43.54877, "longitude": -79.66598}, "last_updated": "2020-06-14 09:38:06.0"}, "328": {"id": "328", "code": "XR", "tags": null, "name": "UTM Student Centre", "short_name": "UTM-Stdt Ctr", "street": "1815 Inner Circle", "city": "Mississauga", "province": "ON", "country": "Canada", "postal": "L5L 1C6", "coordinates": {"latitude": 43.54895, "longitude": -79.66394}, "last_updated": "2020-06-14 09:38:06.0"}, "329": {"id": "329", "code": "CC", "tags": null, "name": "Communication Culture & Technology", "short_name": "CCT", "street": "1800 MIddle Road", "city": "Mississauga", "province": "ON", "country": "Canada", "postal": "L5L 1C6", "coordinates": {"latitude": 43.55003, "longitude": -79.66308}, "last_updated": "2020-06-14 09:38:06.0"}, "330": {"id": "330", "code": "WC", "tags": null, "name": "UTM Alumni House", "short_name": "UTM Alumni", "street": "1550 The Collegeway", "city": "Mississauga", "province": "ON", "country": "Canada", "postal": null, "coordinates": {"latitude": 43.54474, "longitude": -79.66035}, "last_updated": "2020-06-14 09:38:06.0"}, "331": {"id": "331", "code": "HM", "tags": null, "name": "Hazel McCallion Academic Learning Centre", "short_name": "McCallion ALC", "street": "1675 Outer Circle", "city": "Mississauga", "province": "ON", "country": "Canada", "postal": "L5L 1C6", "coordinates": {"latitude": 43.55095, "longitude": -79.66282}, "last_updated": "2020-06-14 09:38:06.0"}, "332": {"id": "332", "code": "RA", "tags": null, "name": "Recreation Athletics & Wellness", "short_name": "RAWC", "street": "1825 Outer Circle", "city": "Mississauga", "province": "ON", "country": "Canada", "postal": "L5L 1C6", "coordinates": {"latitude": 43.5482, "longitude": -79.66089}, "last_updated": "2020-06-14 09:38:06.0"}, "333": {"id": "333", "code": "HB", "tags": null, "name": "Terrence Donnelly Health Sciences Complex", "short_name": "HealthSci (UTM)", "street": "1777 Outer Circle", "city": "Mississauga", "province": "ON", "country": "Canada", "postal": "L5L 1C6", "coordinates": {"latitude": 43.54964, "longitude": -79.66194}, "last_updated": "2020-06-14 09:38:06.0"}, "334": {"id": "334", "code": "IB", "tags": null, "name": "Instructional Centre (UTM)", "short_name": "Instr Ctr", "street": "1599 Outer Circle", "city": "Mississauga", "province": "ON", "country": "Canada", "postal": "L5L 1C6", "coordinates": {"latitude": 43.55154, "longitude": -79.66382}, "last_updated": "2020-06-14 09:38:06.0"}, "335": {"id": "335", "code": "AX", "tags": null, "name": "Academic Annex", "short_name": "Acad Annex", "street": "1795 Inner Circle", "city": "Mississauga", "province": "ON", "country": "Canada", "postal": "L5L 1C6", "coordinates": {"latitude": 43.54816, "longitude": -79.66452}, "last_updated": "2020-06-14 09:38:06.0"}, "336": {"id": "336", "code": "GF", "tags": null, "name": "UTM Grounds Building", "short_name": "UTM Grounds", "street": "3255 Principal's Road", "city": "Mississauga", "province": "ON", "country": "Canada", "postal": null, "coordinates": {"latitude": 43.55351, "longitude": -79.6655}, "last_updated": "2020-06-14 09:38:06.0"}, "338": {"id": "338", "code": "BG", "tags": null, "name": "Research Greenhouse", "short_name": "Res Greenhse", "street": "1695 Outer Circle", "city": "Mississauga", "province": "ON", "country": "Canada", "postal": null, "coordinates": {"latitude": 43.5508, "longitude": -79.66207}, "last_updated": "2020-06-14 09:38:06.0"}, "339": {"id": "339", "code": null, "tags": null, "name": "New Science Building", "short_name": "New Science", "street": null, "city": null, "province": null, "country": null, "postal": null, "coordinates": {"latitude": null, "longitude": null}, "last_updated": "2020-06-14 09:38:06.0"}, "340": {"id": "340", "code": "DH", "tags": null, "name": "Deerfield Hall", "short_name": "Deerfield", "street": "1535 Outer Circle", "city": "Mississauga", "province": "ON", "country": "Canada", "postal": null, "coordinates": {"latitude": 43.55042, "longitude": -79.66629}, "last_updated": "2020-06-14 09:38:06.0"}, "341": {"id": "341", "code": "MN", "tags": null, "name": "Maanjiwe nendamowinan (formerly new North Building)", "short_name": "Maanjiwe", "street": "1535 Outer Circle", "city": "Mississauga", "province": "ON", "country": "Canada", "postal": null, "coordinates": {"latitude": 43.55103, "longitude": -79.66593}, "last_updated": "2020-06-14 09:38:06.0"}, "343": {"id": "343", "code": null, "tags": null, "name": "New Modular Building", "short_name": "New Modular", "street": null, "city": null, "province": null, "country": null, "postal": null, "coordinates": {"latitude": null, "longitude": null}, "last_updated": "2020-06-14 09:38:06.0"}, "344": {"id": "344", "code": null, "tags": null, "name": "Early Learning Centre (UTM)", "short_name": "Early Learning", "street": null, "city": null, "province": null, "country": null, "postal": null, "coordinates": {"latitude": null, "longitude": null}, "last_updated": "2020-06-14 09:38:06.0"}, "200B": {"id": "200B", "code": "BV", "tags": null, "name": "Bladen Wing (B-Wing)", "short_name": "B-Wing", "street": "1265 Military Trail", "city": "Scarborough", "province": "ON", "country": "Canada", "postal": "M1C 1A4", "coordinates": {"latitude": 43.78432, "longitude": -79.18685}, "last_updated": "2020-06-14 09:38:06.0"}, "200H": {"id": "200H", "code": "HW", "tags": null, "name": "Humanities Wing (H-Wing)", "short_name": "H-Wing", "street": "1265 Military Trail", "city": "Scarborough", "province": "ON", "country": "Canada", "postal": "M1C 1A4", "coordinates": {"latitude": 43.78345, "longitude": -79.18704}, "last_updated": "2020-06-14 09:38:06.0"}, "200J": {"id": "200J", "code": "PO", "tags": null, "name": "Portable 101", "short_name": "Portable 101", "street": null, "city": "Scarborough", "province": "ON", "country": "Canada", "postal": null, "coordinates": {"latitude": 43.78379, "longitude": -79.18842}, "last_updated": "2020-06-14 09:38:06.0"}, "200K": {"id": "200K", "code": "PO", "tags": null, "name": "Portable 102", "short_name": "Portable 102", "street": null, "city": "Scarborough", "province": "ON", "country": "Canada", "postal": null, "coordinates": {"latitude": 43.7839, "longitude": -79.18856}, "last_updated": "2020-06-14 09:38:06.0"}, "200L": {"id": "200L", "code": "PO", "tags": null, "name": "Portable 103", "short_name": "Portable 103", "street": null, "city": "Scarborough", "province": "ON", "country": "Canada", "postal": null, "coordinates": {"latitude": 43.78399, "longitude": -79.18871}, "last_updated": "2020-06-14 09:38:06.0"}, "200M": {"id": "200M", "code": "MW", "tags": null, "name": "Social Sciences Building", "short_name": "Social Sci", "street": "1265 Military Trail", "city": "Scarborough", "province": "ON", "country": "Canada", "postal": "M1C 1A4", "coordinates": {"latitude": 43.78286, "longitude": -79.18603}, "last_updated": "2020-06-14 09:38:06.0"}, "200N": {"id": "200N", "code": "PO", "tags": null, "name": "Portable 104", "short_name": "Portable 104", "street": null, "city": "Scarborough", "province": "ON", "country": "Canada", "postal": null, "coordinates": {"latitude": 43.78412, "longitude": -79.18899}, "last_updated": "2020-06-14 09:38:06.0"}, "200P": {"id": "200P", "code": "PO", "tags": null, "name": "Portable 105", "short_name": "Portable 105", "street": null, "city": "Scarborough", "province": "ON", "country": "Canada", "postal": null, "coordinates": {"latitude": 43.7842, "longitude": -79.18885}, "last_updated": "2020-06-14 09:38:06.0"}, "200Q": {"id": "200Q", "code": "PO", "tags": null, "name": "Portable 106", "short_name": "Portable 106", "street": null, "city": "Scarborough", "province": "ON", "country": "Canada", "postal": null, "coordinates": {"latitude": 43.78262, "longitude": -79.18562}, "last_updated": "2020-06-14 09:38:06.0"}, "200R": {"id": "200R", "code": "HL", "tags": null, "name": "Highland Hall", "short_name": "Highland", "street": "1265 Military Trail", "city": "Scarborough", "province": "ON", "country": "Canada", "postal": "M1C 1A4", "coordinates": {"latitude": 43.78476, "longitude": -79.18593}, "last_updated": "2020-06-14 09:38:06.0"}, "200S": {"id": "200S", "code": "SW", "tags": null, "name": "Science Wing (S-Wing)", "short_name": "S-Wing", "street": "1265 Military Trail", "city": "Scarborough", "province": "ON", "country": "Canada", "postal": "M1C 1A4", "coordinates": {"latitude": 43.78358, "longitude": -79.18781}, "last_updated": "2020-06-14 09:38:06.0"}, "201": {"id": "201", "code": "AC", "tags": null, "name": "Academic Resource Centre", "short_name": "ARC", "street": "1265 Military Trail", "city": "Scarborough", "province": "ON", "country": "Canada", "postal": "M1C 1A4", "coordinates": {"latitude": 43.78418, "longitude": -79.18643}, "last_updated": "2020-06-14 09:38:06.0"}, "203": {"id": "203", "code": "SL", "tags": null, "name": "UTSC Student Centre", "short_name": "Student Ctr", "street": "1265 Military Trail", "city": "Scarborough", "province": "ON", "country": "Canada", "postal": "M1C 1A4", "coordinates": {"latitude": 43.78501, "longitude": -79.18695}, "last_updated": "2020-06-14 09:38:06.0"}, "204": {"id": "204", "code": "AA", "tags": null, "name": "Arts & Admin Building", "short_name": "Arts & Admin", "street": "1265 Military Trail", "city": "Scarborough", "province": "ON", "country": "Canada", "postal": "M1C 1A4", "coordinates": {"latitude": 43.78458, "longitude": -79.18735}, "last_updated": "2020-06-14 09:38:06.0"}, "205": {"id": "205", "code": "SY", "tags": null, "name": "Science Research Building", "short_name": "Sci Research", "street": null, "city": "Scarborough", "province": "ON", "country": "Canada", "postal": null, "coordinates": {"latitude": 43.78426, "longitude": -79.18949}, "last_updated": "2020-06-14 09:38:06.0"}, "206": {"id": "206", "code": "IC", "tags": null, "name": "Instructional Centre (UTSC)", "short_name": "Instr Ctr", "street": "1095 Military Trail", "city": "Scarborough", "province": "ON", "country": "Canada", "postal": null, "coordinates": {"latitude": 43.78692, "longitude": -79.18969}, "last_updated": "2020-06-14 09:38:06.0"}, "207": {"id": "207", "code": "EV", "tags": null, "name": "Environmental Science & Chemistry", "short_name": "Env Sci&Chem", "street": "1065 Military Trail", "city": "Scarborough", "province": "ON", "country": "Canada", "postal": null, "coordinates": {"latitude": 43.78729, "longitude": -79.19049}, "last_updated": "2020-06-14 09:38:06.0"}, "208": {"id": "208", "code": "AQ", "tags": null, "name": "Toronto Pan Am Sports Centre", "short_name": "Tor Pan Am Ctr", "street": "875 Morningside Avenue", "city": "Scarborough", "province": "ON", "country": "Canada", "postal": null, "coordinates": {"latitude": 43.79065, "longitude": -79.19362}, "last_updated": "2020-06-14 09:38:06.0"}, "210A": {"id": "210A", "code": null, "tags": null, "name": "Block A (Student Townhouse Res-Phase I)", "short_name": "Block A-Pse I", "street": "1295 Military Trail", "city": "Scarborough", "province": "ON", "country": "Canada", "postal": "M1C 3A8", "coordinates": {"latitude": 43.78387, "longitude": -79.18378}, "last_updated": "2020-06-14 09:38:06.0"}, "210B": {"id": "210B", "code": null, "tags": null, "name": "Block B (Student Townhouse Res-Phase I)", "short_name": "Block B-Pse I", "street": "1295 Military Trail", "city": "Scarborough", "province": "ON", "country": "Canada", "postal": "M1C 3A8", "coordinates": {"latitude": 43.7835, "longitude": -79.18406}, "last_updated": "2020-06-14 09:38:06.0"}, "210C": {"id": "210C", "code": null, "tags": null, "name": "Block C (Student Townhouse Res-Phase I)", "short_name": "Block C-Pse I", "street": "1295 Military Trail", "city": "Scarborough", "province": "ON", "country": "Canada", "postal": "M1C 3A8", "coordinates": {"latitude": 43.78331, "longitude": -79.18363}, "last_updated": "2020-06-14 09:38:06.0"}, "210D": {"id": "210D", "code": null, "tags": null, "name": "Block D (Student Townhouse Res-Phase I)", "short_name": "Block D-Pse I", "street": "1295 Military Trail", "city": "Scarborough", "province": "ON", "country": "Canada", "postal": "M1C 3A8", "coordinates": {"latitude": 43.78306, "longitude": -79.18421}, "last_updated": "2020-06-14 09:38:06.0"}, "210E": {"id": "210E", "code": null, "tags": null, "name": "Block E (Student Townhouse Res-Phase I)", "short_name": "Block E-Pse I", "street": "1295 Military Trail", "city": "Scarborough", "province": "ON", "country": "Canada", "postal": "M1C 3A8", "coordinates": {"latitude": 43.78336, "longitude": -79.18461}, "last_updated": "2020-06-14 09:38:06.0"}, "210F": {"id": "210F", "code": null, "tags": null, "name": "Block F (Student Townhouse Res-Phase II)", "short_name": "Block F-Pse II", "street": "1295 Military Trail", "city": "Scarborough", "province": "ON", "country": "Canada", "postal": "M1C 3A8", "coordinates": {"latitude": 43.78268, "longitude": -79.18452}, "last_updated": "2020-06-14 09:38:06.0"}, "210G": {"id": "210G", "code": null, "tags": null, "name": "Block G (Student Townhouse Res-Phase II)", "short_name": "Block G-Pse II", "street": "1295 Military Trail", "city": "Scarborough", "province": "ON", "country": "Canada", "postal": "M1C 3A8", "coordinates": {"latitude": 43.78255, "longitude": -79.18425}, "last_updated": "2020-06-14 09:38:06.0"}, "210H": {"id": "210H", "code": null, "tags": null, "name": "Block H (Student Townhouse Res-Phase II)", "short_name": "Block H-Pse II", "street": "1295 Military Trail", "city": "Scarborough", "province": "ON", "country": "Canada", "postal": "M1C 3A8", "coordinates": {"latitude": 43.78283, "longitude": -79.18366}, "last_updated": "2020-06-14 09:38:06.0"}, "210I": {"id": "210I", "code": null, "tags": null, "name": "Block I (Student Townhouse Res-Phase II)", "short_name": "Block I-Pse II", "street": "1295 Military Trail", "city": "Scarborough", "province": "ON", "country": "Canada", "postal": "M1C 3A8", "coordinates": {"latitude": 43.78248, "longitude": -79.18366}, "last_updated": "2020-06-14 09:38:06.0"}, "210J": {"id": "210J", "code": null, "tags": null, "name": "Block J(Student Townhouse Res-Phase III)", "short_name": "Block J-Pse III", "street": "1235 Military Trail", "city": "Scarborough", "province": "ON", "country": "Canada", "postal": "M1C 1A3", "coordinates": {"latitude": 43.78565, "longitude": -79.18971}, "last_updated": "2020-06-14 09:38:06.0"}, "210K": {"id": "210K", "code": null, "tags": null, "name": "Block K(Student Townhouse Res-Phase III)", "short_name": "Block K-Pse III", "street": "1235 Military Trail", "city": "Scarborough", "province": "ON", "country": "Canada", "postal": "M1C 1A3", "coordinates": {"latitude": 43.7851, "longitude": -79.18949}, "last_updated": "2020-06-14 09:38:06.0"}, "210L": {"id": "210L", "code": null, "tags": null, "name": "Block L(Student Townhouse Res-Phase III)", "short_name": "Block L-Pse III", "street": "1235 Military Trail", "city": "Scarborough", "province": "ON", "country": "Canada", "postal": "M1C 1A3", "coordinates": {"latitude": 43.78529, "longitude": -79.18905}, "last_updated": "2020-06-14 09:38:06.0"}, "210M": {"id": "210M", "code": null, "tags": null, "name": "Block M(Student Townhouse Res-Phase III)", "short_name": "Block M-Pse III", "street": "1235 Military Trail", "city": "Scarborough", "province": "ON", "country": "Canada", "postal": "M1C 1A3", "coordinates": {"latitude": 43.78471, "longitude": -79.18897}, "last_updated": "2020-06-14 09:38:06.0"}, "211": {"id": "211", "code": "FL", "tags": null, "name": "Joan Foley Hall (Student Res-Phase IV)", "short_name": "Foley Hall", "street": "1295  Military Trail", "city": "Scarborough", "province": "ON", "country": "Canada", "postal": "M1C 1A3", "coordinates": {"latitude": 43.78297, "longitude": -79.18515}, "last_updated": "2020-06-14 09:38:06.0"}, "230": {"id": "230", "code": "VL", "tags": null, "name": "Student Residence Centre", "short_name": "Student Res Ctr", "street": "1275  Military Trail", "city": "Scarborough", "province": "ON", "country": "Canada", "postal": "M1C 1A4", "coordinates": {"latitude": 43.78332, "longitude": -79.18517}, "last_updated": "2020-06-14 09:38:06.0"}, "231": {"id": "231", "code": "NC", "tags": null, "name": "N'sheemaehn Child Care Centre", "short_name": "UTSC Childcare", "street": "1255 Military Trail", "city": "Scarborough", "province": "ON", "country": "Canada", "postal": "M1C 1A3", "coordinates": {"latitude": 43.78569, "longitude": -79.1881}, "last_updated": "2020-06-14 09:38:06.0"}, "260": {"id": "260", "code": null, "tags": null, "name": "Harbutt House (Vacant)", "short_name": "Harbutt Hse", "street": "130  Old Kingston Road", "city": "Scarborough", "province": "ON", "country": "Canada", "postal": "M1E 3J5", "coordinates": {"latitude": 43.77929, "longitude": -79.18113}, "last_updated": "2020-06-14 09:38:06.0"}, "261": {"id": "261", "code": null, "tags": null, "name": "Coach House - Old Kingston Rd", "short_name": "Coach House", "street": "130 Old Kingston Road", "city": "Scarborough", "province": "ON", "country": "Canada", "postal": "M1E 3J5", "coordinates": {"latitude": 43.77885, "longitude": -79.18473}, "last_updated": "2020-06-14 09:38:06.0"}, "263": {"id": "263", "code": null, "tags": null, "name": "Miller Lash House", "short_name": "Miller Lash", "street": "130 Old Kingston Road", "city": "Scarborough", "province": "ON", "country": "Canada", "postal": "M1E 3J5", "coordinates": {"latitude": 43.77996, "longitude": -79.18539}, "last_updated": "2020-06-14 09:38:06.0"}}